{
  "schemaVersion": 1,
  "sourceIds": ["historical-gazetteer-1921", "iish-ristat-1897-gis-v3.3"],
  "cities": [
    {"id":"petrograd-city","name":"Petrograd","alternateNames":["Saint Petersburg"],"provinceId":"petrograd-governorate","strategicRegionId":"petrograd","longitude":30.32,"latitude":59.94,"validFrom":"1914-08","populationCategory":"metropolis","importanceTier":"national","industrialImportance":95,"railwayImportance":90,"politicalImportance":100,"labelPriority":1,"nationalEssential":true,"port":true},
    {"id":"moscow-city","name":"Moscow","alternateNames":[],"provinceId":"moscow-governorate","strategicRegionId":"moscow","longitude":37.62,"latitude":55.75,"validFrom":"1921-01","populationCategory":"metropolis","importanceTier":"national","industrialImportance":90,"railwayImportance":100,"politicalImportance":100,"labelPriority":1,"nationalEssential":true},
    {"id":"minsk-city","name":"Minsk","alternateNames":[],"provinceId":"minsk-governorate","strategicRegionId":"belarus","longitude":27.56,"latitude":53.90,"validFrom":"1921-01","populationCategory":"major","importanceTier":"republic","industrialImportance":45,"railwayImportance":80,"politicalImportance":70,"labelPriority":1},
    {"id":"kiev-city","name":"Kiev","alternateNames":["Kyiv"],"provinceId":"kiev-governorate","strategicRegionId":"central_ukraine","longitude":30.52,"latitude":50.45,"validFrom":"1921-01","populationCategory":"major","importanceTier":"republic","industrialImportance":65,"railwayImportance":85,"politicalImportance":85,"labelPriority":1,"nationalEssential":true},
    {"id":"kharkov-city","name":"Kharkov","alternateNames":["Kharkiv"],"provinceId":"kharkov-governorate","strategicRegionId":"central_ukraine","longitude":36.23,"latitude":49.99,"validFrom":"1921-01","populationCategory":"major","importanceTier":"republic","industrialImportance":85,"railwayImportance":90,"politicalImportance":80,"labelPriority":1},
    {"id":"odessa-city","name":"Odessa","alternateNames":["Odesa"],"provinceId":"odessa-governorate","strategicRegionId":"central_ukraine","longitude":30.73,"latitude":46.48,"validFrom":"1921-01","populationCategory":"major","importanceTier":"regional","industrialImportance":65,"railwayImportance":70,"politicalImportance":65,"labelPriority":2,"port":true},
    {"id":"rostov-city","name":"Rostov-on-Don","alternateNames":[],"provinceId":"don-oblast","strategicRegionId":"don_basin","longitude":39.70,"latitude":47.24,"validFrom":"1921-01","populationCategory":"major","importanceTier":"regional","industrialImportance":70,"railwayImportance":90,"politicalImportance":65,"labelPriority":1,"nationalEssential":true},
    {"id":"tsaritsyn-city","name":"Tsaritsyn","alternateNames":["Volgograd"],"provinceId":"tsaritsyn-governorate","strategicRegionId":"lower_volga","longitude":44.51,"latitude":48.71,"validFrom":"1921-01","populationCategory":"regional","importanceTier":"regional","industrialImportance":65,"railwayImportance":80,"politicalImportance":60,"labelPriority":1,"nationalEssential":true,"periodNote":"Name used until 1925."},
    {"id":"saratov-city","name":"Saratov","alternateNames":[],"provinceId":"saratov-governorate","strategicRegionId":"middle_volga","longitude":46.03,"latitude":51.53,"validFrom":"1921-01","populationCategory":"major","importanceTier":"regional","industrialImportance":55,"railwayImportance":75,"politicalImportance":60,"labelPriority":2},
    {"id":"samara-city","name":"Samara","alternateNames":[],"provinceId":"samara-governorate","strategicRegionId":"middle_volga","longitude":50.10,"latitude":53.20,"validFrom":"1921-01","populationCategory":"major","importanceTier":"regional","industrialImportance":60,"railwayImportance":90,"politicalImportance":65,"labelPriority":1},
    {"id":"kazan-city","name":"Kazan","alternateNames":[],"provinceId":"tatar-assr","strategicRegionId":"upper_volga","longitude":49.11,"latitude":55.79,"validFrom":"1921-01","populationCategory":"major","importanceTier":"republic","industrialImportance":65,"railwayImportance":75,"politicalImportance":75,"labelPriority":1,"nationalEssential":true},
    {"id":"nizhny-city","name":"Nizhny Novgorod","alternateNames":["Gorky"],"provinceId":"nizhny-novgorod-governorate","strategicRegionId":"upper_volga","longitude":44.00,"latitude":56.33,"validFrom":"1921-01","populationCategory":"major","importanceTier":"regional","industrialImportance":75,"railwayImportance":85,"politicalImportance":65,"labelPriority":2,"periodNote":"Renamed Gorky in 1932."},
    {"id":"perm-city","name":"Perm","alternateNames":[],"provinceId":"perm-governorate","strategicRegionId":"urals","longitude":56.23,"latitude":58.01,"validFrom":"1921-01","populationCategory":"major","importanceTier":"regional","industrialImportance":80,"railwayImportance":85,"politicalImportance":55,"labelPriority":2},
    {"id":"ekaterinburg-city","name":"Ekaterinburg","alternateNames":["Yekaterinburg"],"provinceId":"ekaterinburg-governorate","strategicRegionId":"urals","longitude":60.60,"latitude":56.84,"validFrom":"1921-01","populationCategory":"major","importanceTier":"regional","industrialImportance":85,"railwayImportance":90,"politicalImportance":70,"labelPriority":1,"periodNote":"Renamed Sverdlovsk in 1924."},
    {"id":"omsk-city","name":"Omsk","alternateNames":[],"provinceId":"omsk-governorate","strategicRegionId":"western_siberia","longitude":73.37,"latitude":54.99,"validFrom":"1921-01","populationCategory":"major","importanceTier":"regional","industrialImportance":55,"railwayImportance":95,"politicalImportance":70,"labelPriority":1,"nationalEssential":true},
    {"id":"novonikolayevsk-city","name":"Novo-Nikolayevsk","alternateNames":["Novosibirsk"],"provinceId":"tomsk-governorate","strategicRegionId":"western_siberia","longitude":82.92,"latitude":55.03,"validFrom":"1921-01","populationCategory":"major","importanceTier":"regional","industrialImportance":55,"railwayImportance":100,"politicalImportance":60,"labelPriority":1,"periodNote":"Renamed Novosibirsk in 1926."},
    {"id":"irkutsk-city","name":"Irkutsk","alternateNames":[],"provinceId":"irkutsk-governorate","strategicRegionId":"central_siberia","longitude":104.28,"latitude":52.29,"validFrom":"1921-01","populationCategory":"major","importanceTier":"regional","industrialImportance":50,"railwayImportance":90,"politicalImportance":60,"labelPriority":1},
    {"id":"vladivostok-city","name":"Vladivostok","alternateNames":[],"provinceId":"maritime-oblast-fer","strategicRegionId":"far_east","longitude":131.89,"latitude":43.12,"validFrom":"1921-01","populationCategory":"major","importanceTier":"republic","industrialImportance":50,"railwayImportance":95,"politicalImportance":85,"labelPriority":1,"nationalEssential":true,"port":true,"assignmentMethod":"manual_coastal_tolerance","assignmentNote":"Verified against the generalized IISH coast; the documented city point falls 8.5 km seaward of the source polygon."},
    {"id":"tashkent-city","name":"Tashkent","alternateNames":[],"provinceId":"syr-darya-oblast","strategicRegionId":"turkestan","longitude":69.24,"latitude":41.30,"validFrom":"1921-01","populationCategory":"major","importanceTier":"republic","industrialImportance":55,"railwayImportance":85,"politicalImportance":80,"labelPriority":1,"nationalEssential":true},
    {"id":"baku-city","name":"Baku","alternateNames":[],"provinceId":"azerbaijan-ssr","strategicRegionId":"azerbaijan","longitude":49.87,"latitude":40.41,"validFrom":"1921-01","populationCategory":"major","importanceTier":"republic","industrialImportance":100,"railwayImportance":75,"politicalImportance":85,"labelPriority":1,"nationalEssential":true,"port":true},
    {"id":"tiflis-city","name":"Tiflis","alternateNames":["Tbilisi"],"provinceId":"georgian-ssr","strategicRegionId":"georgia","longitude":44.79,"latitude":41.72,"validFrom":"1921-01","populationCategory":"major","importanceTier":"republic","industrialImportance":55,"railwayImportance":80,"politicalImportance":85,"labelPriority":1,"periodNote":"Contemporary English and Russian usage; Georgian name Tbilisi."},
    {"id":"yerevan-city","name":"Yerevan","alternateNames":["Erivan"],"provinceId":"armenian-ssr","strategicRegionId":"armenia","longitude":44.51,"latitude":40.18,"validFrom":"1921-01","populationCategory":"regional","importanceTier":"republic","industrialImportance":35,"railwayImportance":55,"politicalImportance":75,"labelPriority":2},
    {"id":"tambov-city","name":"Tambov","alternateNames":[],"provinceId":"tambov-governorate","strategicRegionId":"tambov","longitude":41.45,"latitude":52.72,"validFrom":"1921-01","populationCategory":"regional","importanceTier":"provincial","industrialImportance":35,"railwayImportance":65,"politicalImportance":75,"labelPriority":3},
    {"id":"tula-city","name":"Tula","alternateNames":[],"provinceId":"tula-governorate","strategicRegionId":"tula","longitude":37.62,"latitude":54.20,"validFrom":"1921-01","populationCategory":"regional","importanceTier":"provincial","industrialImportance":85,"railwayImportance":70,"politicalImportance":55,"labelPriority":3},
    {"id":"voronezh-city","name":"Voronezh","alternateNames":[],"provinceId":"voronezh-governorate","strategicRegionId":"tambov","longitude":39.20,"latitude":51.67,"validFrom":"1921-01","populationCategory":"regional","importanceTier":"provincial","industrialImportance":45,"railwayImportance":75,"politicalImportance":55,"labelPriority":3},
    {"id":"kursk-city","name":"Kursk","alternateNames":[],"provinceId":"kursk-governorate","strategicRegionId":"tula","longitude":36.19,"latitude":51.74,"validFrom":"1921-01","populationCategory":"regional","importanceTier":"provincial","industrialImportance":40,"railwayImportance":80,"politicalImportance":50,"labelPriority":3},
    {"id":"ryazan-city","name":"Ryazan","alternateNames":[],"provinceId":"ryazan-governorate","strategicRegionId":"moscow","longitude":39.74,"latitude":54.63,"validFrom":"1921-01","populationCategory":"regional","importanceTier":"provincial","industrialImportance":45,"railwayImportance":80,"politicalImportance":50,"labelPriority":3},
    {"id":"smolensk-city","name":"Smolensk","alternateNames":[],"provinceId":"smolensk-governorate","strategicRegionId":"belarus","longitude":32.05,"latitude":54.78,"validFrom":"1921-01","populationCategory":"regional","importanceTier":"provincial","industrialImportance":35,"railwayImportance":80,"politicalImportance":55,"labelPriority":3},
    {"id":"arkhangelsk-city","name":"Arkhangelsk","alternateNames":[],"provinceId":"arkhangelsk-governorate","strategicRegionId":"northern_russia","longitude":40.54,"latitude":64.54,"validFrom":"1921-01","populationCategory":"regional","importanceTier":"provincial","industrialImportance":45,"railwayImportance":50,"politicalImportance":55,"labelPriority":3,"port":true},
    {"id":"murmansk-city","name":"Murmansk","alternateNames":[],"provinceId":"murmansk-governorate","strategicRegionId":"karelia","longitude":33.08,"latitude":68.97,"validFrom":"1916-10","populationCategory":"regional","importanceTier":"provincial","industrialImportance":35,"railwayImportance":85,"politicalImportance":60,"labelPriority":3,"port":true},
    {"id":"krasnoyarsk-city","name":"Krasnoyarsk","alternateNames":[],"provinceId":"yeniseisk-governorate","strategicRegionId":"central_siberia","longitude":92.87,"latitude":56.01,"validFrom":"1921-01","populationCategory":"regional","importanceTier":"provincial","industrialImportance":45,"railwayImportance":90,"politicalImportance":50,"labelPriority":3},
    {"id":"tomsk-city","name":"Tomsk","alternateNames":[],"provinceId":"tomsk-governorate","strategicRegionId":"western_siberia","longitude":84.95,"latitude":56.49,"validFrom":"1921-01","populationCategory":"regional","importanceTier":"provincial","industrialImportance":45,"railwayImportance":60,"politicalImportance":60,"labelPriority":3},
    {"id":"chita-city","name":"Chita","alternateNames":[],"provinceId":"transbaikal-oblast-fer","strategicRegionId":"far_east","longitude":113.50,"latitude":52.03,"validFrom":"1921-01","populationCategory":"regional","importanceTier":"provincial","industrialImportance":35,"railwayImportance":90,"politicalImportance":70,"labelPriority":3},
    {"id":"khabarovsk-city","name":"Khabarovsk","alternateNames":[],"provinceId":"maritime-oblast-fer","strategicRegionId":"far_east","longitude":135.07,"latitude":48.48,"validFrom":"1921-01","populationCategory":"regional","importanceTier":"provincial","industrialImportance":35,"railwayImportance":90,"politicalImportance":65,"labelPriority":3},
    {"id":"poltava-city","name":"Poltava","alternateNames":[],"provinceId":"poltava-governorate","strategicRegionId":"central_ukraine","longitude":34.55,"latitude":49.59,"validFrom":"1921-01","populationCategory":"regional","importanceTier":"provincial","industrialImportance":35,"railwayImportance":70,"politicalImportance":50,"labelPriority":3},
    {"id":"ekaterinoslav-city","name":"Ekaterinoslav","alternateNames":["Dnipro"],"provinceId":"ekaterinoslav-governorate","strategicRegionId":"central_ukraine","longitude":35.05,"latitude":48.47,"validFrom":"1921-01","populationCategory":"major","importanceTier":"provincial","industrialImportance":85,"railwayImportance":85,"politicalImportance":60,"labelPriority":2,"periodNote":"Renamed Dnipropetrovsk in 1926."}
  ]
}
