{
  "schemaVersion": 1,
  "sites": [
    {"id":"putilov-works","name":"Putilov Works","provinceId":"petrograd-governorate","cityId":"petrograd-city","longitude":30.28,"latitude":59.87,"kind":"factory","validFrom":"1801-01","classification":"documented","sourceIds":["putilov-works-history"],"notes":"Major metalworking complex and documented center of labor politics."},
    {"id":"baltic-shipyard","name":"Baltic Shipyard","provinceId":"petrograd-governorate","cityId":"petrograd-city","longitude":30.26,"latitude":59.92,"kind":"factory","validFrom":"1856-01","classification":"documented","sourceIds":["baltic-shipyard-history"]},
    {"id":"kronstadt-port","name":"Kronstadt Naval Port","provinceId":"petrograd-governorate","longitude":29.77,"latitude":59.99,"kind":"port","validFrom":"1704-01","classification":"documented","sourceIds":["kronstadt-historical-port"],"assignmentMethod":"manual_coastal_tolerance","assignmentNote":"Verified coastal-island exception; Kotlin Island is omitted by the small-scale IISH province coast."},
    {"id":"petrograd-union-bureau","name":"Petrograd Union Bureau","provinceId":"petrograd-governorate","cityId":"petrograd-city","longitude":30.33,"latitude":59.93,"kind":"union_office","validFrom":"1921-03","validUntil":"1921-08","classification":"historically_plausible_composite","sourceIds":["gameplay-composite-1921"],"notes":"Composite union coordination site; not presented as a documented office address."},
    {"id":"petrograd-security-office","name":"Petrograd Security District Office","provinceId":"petrograd-governorate","cityId":"petrograd-city","longitude":30.35,"latitude":59.94,"kind":"security_office","validFrom":"1921-03","classification":"historically_plausible_composite","sourceIds":["gameplay-composite-1921"],"notes":"Composite gameplay location representing district security administration."},
    {"id":"petrograd-garrison","name":"Petrograd Garrison District","provinceId":"petrograd-governorate","cityId":"petrograd-city","longitude":30.39,"latitude":59.96,"kind":"garrison","validFrom":"1921-03","classification":"historically_plausible_composite","sourceIds":["gameplay-composite-1921"]},
    {"id":"moscow-rail-junction","name":"Moscow Rail Junction","provinceId":"moscow-governorate","cityId":"moscow-city","longitude":37.66,"latitude":55.77,"kind":"railway_junction","validFrom":"1862-01","classification":"historically_plausible_composite","sourceIds":["rail-network-1921"],"notes":"Composite marker for multiple documented terminal approaches."},
    {"id":"moscow-metalworks","name":"Moscow Metalworking Belt","provinceId":"moscow-governorate","cityId":"moscow-city","longitude":37.70,"latitude":55.72,"kind":"factory","validFrom":"1921-03","classification":"historically_plausible_composite","sourceIds":["gameplay-composite-1921"]},
    {"id":"moscow-union-office","name":"Moscow Union Coordination Office","provinceId":"moscow-governorate","cityId":"moscow-city","longitude":37.59,"latitude":55.76,"kind":"union_office","validFrom":"1921-03","classification":"historically_plausible_composite","sourceIds":["gameplay-composite-1921"]},
    {"id":"tula-arms-plant","name":"Tula Arms Plant","provinceId":"tula-governorate","cityId":"tula-city","longitude":37.60,"latitude":54.21,"kind":"factory","validFrom":"1712-01","classification":"documented","sourceIds":["tula-arms-plant-history"]},
    {"id":"tambov-relief-station","name":"Tambov Relief Station","provinceId":"tambov-governorate","cityId":"tambov-city","longitude":41.44,"latitude":52.73,"kind":"relief_station","validFrom":"1921-03","validUntil":"1921-08","classification":"historically_plausible_composite","sourceIds":["gameplay-composite-1921"]},
    {"id":"tambov-garrison","name":"Tambov Garrison","provinceId":"tambov-governorate","cityId":"tambov-city","longitude":41.48,"latitude":52.71,"kind":"garrison","validFrom":"1921-03","classification":"historically_plausible_composite","sourceIds":["gameplay-composite-1921"]},
    {"id":"kharkov-rail-junction","name":"Kharkov Rail Junction","provinceId":"kharkov-governorate","cityId":"kharkov-city","longitude":36.21,"latitude":49.99,"kind":"railway_junction","validFrom":"1869-01","classification":"documented","sourceIds":["rail-network-1921"]},
    {"id":"donbas-coal-field","name":"Donbas Coal Field","provinceId":"donetsk-governorate","longitude":37.80,"latitude":48.10,"kind":"mine","validFrom":"1870-01","classification":"historically_plausible_composite","sourceIds":["donbas-industrial-geography"],"notes":"Composite field marker rather than a single documented mine office."},
    {"id":"odessa-port","name":"Odessa Port","provinceId":"odessa-governorate","cityId":"odessa-city","longitude":30.75,"latitude":46.49,"kind":"port","validFrom":"1794-01","classification":"documented","sourceIds":["odessa-port-history"]},
    {"id":"baku-oil-fields","name":"Baku Oil Fields","provinceId":"azerbaijan-ssr","cityId":"baku-city","longitude":49.98,"latitude":40.45,"kind":"mine","validFrom":"1871-01","classification":"historically_plausible_composite","sourceIds":["baku-oil-history"],"notes":"Composite marker for the documented oil-field complex."},
    {"id":"tiflis-rail-junction","name":"Tiflis Rail Junction","provinceId":"georgian-ssr","cityId":"tiflis-city","longitude":44.80,"latitude":41.73,"kind":"railway_junction","validFrom":"1872-01","classification":"documented","sourceIds":["rail-network-1921"]},
    {"id":"ekaterinburg-rail-junction","name":"Ekaterinburg Rail Junction","provinceId":"ekaterinburg-governorate","cityId":"ekaterinburg-city","longitude":60.61,"latitude":56.85,"kind":"railway_junction","validFrom":"1878-01","classification":"documented","sourceIds":["rail-network-1921"]},
    {"id":"omsk-rail-junction","name":"Omsk Rail Junction","provinceId":"omsk-governorate","cityId":"omsk-city","longitude":73.39,"latitude":54.96,"kind":"railway_junction","validFrom":"1894-01","classification":"documented","sourceIds":["rail-network-1921"]},
    {"id":"vladivostok-port","name":"Vladivostok Port","provinceId":"maritime-oblast-fer","cityId":"vladivostok-city","longitude":131.88,"latitude":43.11,"kind":"port","validFrom":"1860-01","classification":"documented","sourceIds":["vladivostok-port-history"],"assignmentMethod":"manual_coastal_tolerance","assignmentNote":"Verified coastal exception against the generalized IISH shoreline."},
    {"id":"vladivostok-rail-terminus","name":"Trans-Siberian Terminus","provinceId":"maritime-oblast-fer","cityId":"vladivostok-city","longitude":131.88,"latitude":43.12,"kind":"railway_junction","validFrom":"1903-01","classification":"documented","sourceIds":["rail-network-1921"],"assignmentMethod":"manual_coastal_tolerance","assignmentNote":"Verified coastal exception against the generalized IISH shoreline."},
    {"id":"kiev-printing-site","name":"Kiev Underground Printing Site","provinceId":"kiev-governorate","cityId":"kiev-city","longitude":30.50,"latitude":50.45,"kind":"printing_site","validFrom":"1921-03","validUntil":"1921-08","classification":"historically_plausible_composite","sourceIds":["gameplay-composite-1921"],"notes":"Composite player-facing site, not a documented historical address."},
    {"id":"saratov-food-depot","name":"Saratov Relief Depot","provinceId":"saratov-governorate","cityId":"saratov-city","longitude":46.02,"latitude":51.54,"kind":"relief_station","validFrom":"1921-03","validUntil":"1921-08","classification":"historically_plausible_composite","sourceIds":["gameplay-composite-1921"]},
    {"id":"samara-food-depot","name":"Samara Relief Depot","provinceId":"samara-governorate","cityId":"samara-city","longitude":50.11,"latitude":53.19,"kind":"relief_station","validFrom":"1921-03","validUntil":"1921-08","classification":"historically_plausible_composite","sourceIds":["gameplay-composite-1921"]}
  ]
}
